<?xml version="1.0"?>
<gpx version="1.1" creator="Xcode">
    
    <!--
     Provide one or more waypoints containing a latitude/longitude pair. If you provide one
     waypoint, Xcode will simulate that specific location. If you provide multiple waypoints,
     Xcode will simulate a route visiting each waypoint.
     -->

    <!--
     <wpt lat="55.738444" lon="37.594970">
     <name>Ostozenka 38</name>

     -->

    <!--
     <wpt lat="55.739788" lon="37.595055">
     <name>Ek Minar (near Ostozhenka 38)</name>


     <wpt lat="55.756569" lon="37.619477">
     <name>metro Teatralnaya, Severnyi vihod</name>

     <wpt lat="55.738280" lon="37.594948">
     <wpt lat="55.738157" lon="37.595551">
     <name>Памятник на Остоженке 38</name>

     <wpt lat="55.741303" lon="37.592582">
     <name>Памятник Сурикову (Пречистинка)</name>


     <wpt lat="55.741996" lon="37.589470">
     <name>Малый Левшинский переулок</name>


     <wpt lat="55.741052" lon="37.600084">
     <name>Пожарский переулок</name>


     <wpt lat="55.734512" lon="37.590357">
     <name>Ближе к метро, чем Безруков</name>


     <wpt lat="55.734678" lon="37.587273">
     <name>Шахматы</name>


     <wpt lat="55.733193" lon="37.608485">
     <name>Muzeon, справа от входа у домов</name>


     <wpt lat="55.733467" lon="37.587750">
     <name>Лошадь вечерняя Москва</name>


     <wpt lat="55.735492" lon="37.579653">
     <name>Портрет на мед био факультете (рядом со Львом Толстым)</name>


     <wpt lat="55.733582" lon="37.575201">
     <name>Фрезка рядом с летней сценой (рядом со Львом Толстым)</name>

     <wpt lat="55.733857" lon="37.595998">
     <wpt lat="55.733935" lon="37.595623">
     <name>Фрезка на доме (фрунзенская набережная)</name>


     <wpt lat="55.733010" lon="37.595098">
     <name>Серп и молот на доме рядом с фрезкой у фрунзенской набережной (дальше от моста)</name>


     <wpt lat="55.735165" lon="37.598145">
     <name>Через мост от фрезки</name>


     <wpt lat="55.735625" lon="37.582523">
     <name>Институт напитков</name>


     <wpt lat="55.734148" lon="37.584476">
     <name>Дальний угол Сад Люди-деревья на Льва Толстого</name>


     <wpt lat="55.732749" lon="37.588735">
     <name>Толстого 14</name>


     <wpt lat="55.736277" lon="37.593118">
     <name>Провиантские магазины (музей Москвы)</name>


     <wpt lat="55.737006" lon="37.593425">
     <name>Time capsule Капсула времени</name>


     <wpt lat="55.726186" lon="37.595601">
     <name>Изгиб возле Большого Голицинского пруда </name>


     <wpt lat="55.731964" lon="37.594070">
     <name>Cinema club (фрунзенская набережная)</name>


     <wpt lat="55.731646" lon="37.575783">
     <name>Вечная память героям (малая пироговская)</name>


     <wpt lat="55.744121" lon="37.613215">
     <name>Детская площадка рядом с домом на набережной</name>


     <wpt lat="55.736677" lon="37.596685">
     <name>Бассейн Чайка</name>


     <wpt lat="55.736932" lon="37.595462">
     <wpt lat="55.736884" lon="37.595652">
     <name>Лев рядом с бассейном (Парк Культуры метро)</name>


     <wpt lat="55.727269" lon="37.597859">
     <wpt lat="55.727473" lon="37.598549">
     <name>Кормушка (между Голицинским прудом и Входом в парк Горького)</name>


     <wpt lat="55.726567" lon="37.597559">
     <name>Красный дом (HyperCube) рядом с кормушкой</name>


     <wpt lat="55.738586" lon="37.587394">
     <name>Пречестенка и Садовое (Лев на бизнес-центре)</name>


     <wpt lat="55.737808" lon="37.589010">
     <name>Союз журналистов России</name>


     <wpt lat="55.737193" lon="37.598079">
     <name>Хилков 3А, Коммунистический батальон фрунзенского района (за бассейном)</name>


     <wpt lat="55.736732" lon="37.594270">
     <name>Музей Москвы (табличка)</name>


     <wpt lat="55.736309" lon="37.593852">
     <name>Табличка метро Парк Культуры (рядом с музеем Москвы)</name>


     <wpt lat="55.738278" lon="37.575779">
     <name>Плющиха 56 (Fence With Pictures)</name>


     <wpt lat="55.737236" lon="37.574266">
     <name>Горки-каталки рядом с Плющихой 56</name>


     <wpt lat="55.729659" lon="37.597786">
     <name>Самовар (парк Горького)</name>


     <wpt lat="55.735654" lon="37.587094">
     <name>Караваевы (ул Тимура Фрунзе) Студия танцев</name>


     <wpt lat="55.823756" lon="37.560366">
     <name>Заячья избушка</name>


     <wpt lat="55.821580" lon="37.564192">
     <name>Мост в дубках (оба гима)</name>


     <wpt lat="55.738683" lon="37.584898">
     <name>Табличка на Зубовской площади</name>


     <wpt lat="55.726964" lon="37.599733">
     <name>A water source (парк горького, между фонтаном и голицинским прудом)</name>


     <wpt lat="55.739790" lon="37.595486">
     <name>Старый город (рядом с Остоженкой 38, чуть дальше)</name>


     <wpt lat="55.740384" lon="37.592525">
     <name>Львы (рядом с Остоженкой 38 - ближе к Сурикову)</name>


     <wpt lat="55.736618" lon="37.592239">
     <name>Катюша (музей Москвы)</name>


     <wpt lat="55.737107" lon="37.577917">
     <name>Фрунзе и фонтан</name>


     <wpt lat="55.727659" lon="37.596631">
     <name>Седой Чубака</name>


     <wpt lat="55.734307" lon="37.570927">
     <name>Страж военной академии (рядом со Львом Толстым и Фрунзе)</name>


     <wpt lat="55.730720" lon="37.598436">
     <name>Схема парка горького</name>


     <wpt lat="55.730417" lon="37.600378">
     <name>Памятник метателю диска</name>


     <wpt lat="55.735188" lon="37.593383">
     <name>Вестибюль метро Парк Культуры</name>


     <wpt lat="55.732392" lon="37.586745">
     <name>Граффити медведи</name>


     <wpt lat="55.729225" lon="37.591994">
     <name>Россия (Russian Music) - фрунзенская набережная 18</name>


     <wpt lat="55.740590" lon="37.590768">
     <name>Александр Алехин Чемпион (Пречистенка 32)</name>


     <wpt lat="55.741304" lon="37.591948">
     <name>Мадам (Пречистенка 30)</name>


     <wpt lat="55.727064" lon="37.596577">
     <name>Лошадь (Horse) в парке горького, рядом с субмариной и реко</name>


     <wpt lat="55.730074" lon="37.598147">
     <name>Парень с усами (парк Горького)</name>


     <wpt lat="55.730480" lon="37.588038">
     <name>Пожарная каланча по пути к фрунзенской</name>


     <wpt lat="55.737755" lon="37.577314">
     <name>Памятник Распутину (рядом с Фрунзе у Льва Толстого)</name>


     <wpt lat="55.736755" lon="37.589838">
     <name>Клуб Распутин</name>


     <wpt lat="55.733965" lon="37.594344">
     <name>3 Беседки (сквер рядом с метро парк культуры)</name>


     <wpt lat="55.732275" lon="37.593438">
     <name>Горки во дворе у почты (сквер у метро парк Культуры, фрунзенская наережная)</name>


     <wpt lat="55.732039" lon="37.601059">
     <name>Скульптура Ваза рядом со входом в парк Горького</name>

     <wpt lat="55.729787" lon="37.602612">
     <name>Ваза (между прудами парка Горького)</name>


     <wpt lat="55.727054" lon="37.601018">
     <name>Инсталляция АТОМ в парке горького</name>


     <wpt lat="55.726974" lon="37.595592">
     <name>северная Беседка на набережной (парк горького)</name>


     <wpt lat="55.726665" lon="37.596461">
     <name>Камни рядом с беседкой на набережной и кубом (парк Горького)</name>


     <wpt lat="55.726358" lon="37.584598">
     <name>Граффити Лондон (1-ая фрунзенская)</name>


     <wpt lat="55.728472" lon="37.585685">
     <name>Гаупвахта хамовнических казарм</name>


     <wpt lat="55.737088" lon="37.606799">
     <name>Skater Park (Музеон)</name>


     <wpt lat="55.737908" lon="37.608215">
     <name>Парк Музеон на набережной (где край Петра !)</name>


     <wpt lat="55.740008" lon="37.612031">
     <name>Табличка Уровень воды</name>


     <wpt lat="55.739033" lon="37.615025">
     <name>Башенка Сбера</name>


     <wpt lat="55.735676" lon="37.611214">
     <name>Музеон (ближе к Полянке) Вечная память героям</name>


     <wpt lat="55.738271" lon="37.609086">
     <name>Музеон набережная Я люблю Москву</name>


     <wpt lat="55.728885" lon="37.599322">
     <name>Человечек Парк Горького</name>


     <wpt lat="55.732003" lon="37.585841">
     <name>Трапы - Горки за лошадью вечерняя Москва (где граффити медведи)</name>

     <wpt lat="55.727579" lon="37.577335">
     <name>Мост в парке на фрунзенской</name>


     <wpt lat="55.726341" lon="37.578967">
     <name>Фрунзе М.В. (возле метро фрунзенская)</name>


     <wpt lat="55.746437" lon="37.599888">
     <name>Гонамид (гоголевский бульвар)</name>


     <wpt lat="55.741284" lon="37.595255">
     <name>дом Крымова</name>


     <wpt lat="55.732863" lon="37.576633">
     <name>МПГУ (от Толстого ближе к офису)</name>


     <wpt lat="55.744182" lon="37.569477">
     <name>300-летие России и Украины</name>


     <wpt lat="55.726347" lon="37.595567">
     <name>Субмарина (парк горького, возле пруда - но ближе к реке)</name>


     <wpt lat="55.739133" lon="37.597585">
     <name>Муслим Магомаев (Коробейников пер 24, рядом с Хилковым переулком)</name>


     <wpt lat="55.739785" lon="37.584512">
     <name>Колоннада на садовом</name>


     <wpt lat="55.727891" lon="37.582098">
     <name>Круг у фрунзенской</name>



     <wpt lat="55.828831" lon="37.568986">
     <name>Kids ship (за Молодежной)</name>


     <wpt lat="55.821805" lon="37.564866">
     <name>Водоохранная зона парка дубки</name>


     <wpt lat="55.821527" lon="37.563959">
     <name>Парк Дубки, за мостом</name>


     <wpt lat="55.828131" lon="37.568196">
     <name>Graffity City (за Молодёжной)</name>


     <wpt lat="55.828531" lon="37.570096">
     <name>Graffity 1941-1945 (за Молодёжной)</name>


     <wpt lat="55.738780" lon="37.583823">
     <name>Vasiliy Kandinskiy (садовое)</name>


     <wpt lat="55.737617" lon="37.585725">
     <name>Флигель XIX века (садовое)</name>


     <wpt lat="55.731188" lon="37.592022">
     <name>Комсомольцы герои (рядом с тремя медведями и лавкой)</name>


     <wpt lat="55.730801" lon="37.591356">
     <name>Лавочка возле трёх медведей (и комсомольцами героями)</name>


     <wpt lat="55.737587" lon="37.589782">
     <name>РИА Новости (садовое)</name>


     <wpt lat="55.735493" lon="37.594932">
     <name>Здесь был Ленин (Остоженка/садовое)</name>


     <wpt lat="55.732619" lon="37.593156">
     <name>Памятный камень (по пути к метро Парк Культуры)</name>


     <wpt lat="55.723393" lon="37.575110">
     <name>Юрий Буданов (Мемориал, 3-я фрунзенская)</name>


     <wpt lat="55.719445" lon="37.587963">
     <name>Библиотека парка горького</name>


     <wpt lat="55.723667" lon="37.593068">
     <name>Open Air Photo Benniale (парк горького рядом с голицинским прудом)</name>


     <wpt lat="55.742194" lon="37.569471">
     <name>Glass Bridge (Богдана Хмельницкого) </name>


     <wpt lat="55.730506" lon="37.600092">
     <name>Памятник метателю диска (недалеко от входа)</name>


     <wpt lat="55.731462" lon="37.600221">
     <name>Миля Мира... у входа в парк Горького</name>


     <wpt lat="55.737976" lon="37.593280">
     <name>Summer View Mural (Кропоткинский переулок за музеем москвы)</name>


     <wpt lat="55.738137" lon="37.597587">
     <name>Smart cat (Хилков переулок)</name>


     <wpt lat="55.735371" lon="37.595166">
     <name>Академия МИД (за мостом от фрезки)</name>


     <wpt lat="55.730165" lon="37.588837">
     <name>Союз писателей (за тремя медведями, ближе к фрунзенской)</name>


     <wpt lat="55.732772" lon="37.587087">
     <name>Граффити медведи</name>


     <wpt lat="55.740276" lon="37.590555">
     <name>Помранцев переулок (пересечение с Пречестенкой)</name>


     <wpt lat="55.724458" lon="37.596931">
     <name>Colonnade возле Голицинского пруда (Парко горького)</name>


     <wpt lat="55.739331" lon="37.611526">
     <name>Прикольная красная стена за музеоном</name>



     <wpt lat="55.739271" lon="37.611828">
     <name>Anything</name>


     <wpt lat="55.732558" lon="37.615600">
     <name>Красные горки детская площадка (около октяборьской)</name>


     <wpt lat="55.730535" lon="37.612643">
     <name>метро октябрьская: храм казанской иконы</name>


     <wpt lat="55.731449" lon="37.604744">
     <name>Вход в парк горького (ближе к октябрьской)</name>


     <wpt lat="55.728585" lon="37.610788">
     <name>"Воробья" возле метро октябрьская</name>


     <wpt lat="55.730973" lon="37.602084">
     <name>Eco club зелёная школа возле входа в парк горького</name>


     <wpt lat="55.728087" lon="37.613123">
     <name>Панно возле метро октябрьская</name>


     <wpt lat="55.743897" lon="37.599242">
     <name>Усадьба Суворщикова (пречестенка)</name>


     <wpt lat="55.745035" lon="37.599778">
     <name>Лев на цоколе банка (кропоткинская)</name>


     <wpt lat="55.733727" lon="37.618961">
     <name>Позитифф (ул Большая полянка 30)</name>


     <wpt lat="55.725888" lon="37.611140">
     <name>Пенсионный фонд России (ул. Шаболовка, возле метро октябрьская)</name>


     <wpt lat="55.738132" lon="37.590796">
     <name>Граффити ракета за РИА Новости (Elktic умеет добираться)</name>


     <wpt lat="55.825513" lon="37.561940">
     <name>Деревянная горка на красностуденческом (у Пятерочки)</name>


     <wpt lat="55.834930" lon="37.570942">
     <name>Удим удильщика (граффити возле Петровско-Разумовской)</name>


     <wpt lat="55.735589" lon="37.589243">
     <name>Детская площадка зубовский бульвар 2к1 (рядом с офисом)</name>


     <wpt lat="55.731024" lon="37.577542">
     <name>Ресторан бар москвич</name>


     <wpt lat="55.737246" lon="37.587361">
     <name>Спиралька (детская площадка примерно за ВТБ)</name>


     <wpt lat="55.727918" lon="37.590557">
     <name>Военная академия пушка (фрунзенская набережная 22с1)</name>


     <wpt lat="55.739979" lon="37.590688">
     <name>Померанцев переулок 14</name>

     <wpt lat="55.739579" lon="37.591688">
     <name>Померанцев переулок 6</name>

     <wpt lat="55.738624" lon="37.593444">
     <name>Померанцев переулок, 7</name>


     <wpt lat="55.732953" lon="37.604446">
     <name>Памятник у входа в музеон</name>


     <wpt lat="55.733364" lon="37.606056">
     <name>Музеон. World of kidness + Light shower</name>


     <wpt lat="55.731974" lon="37.612631">
     <name>Картина у посольства франции (метро октябрьская)


     <wpt lat="55.734648" lon="37.615482">
     <name>Артефакт на постамента (октябрьская)</name>


     <wpt lat="55.817890" lon="37.565093">
     <name>Детская площадка возле дубков, за старым сбером</name>


     <wpt lat="55.821830" lon="37.560797">
     <name>Детская площадка (Тимирязевская 32) </name>



     <wpt lat="55.731403" lon="37.618094">
     <name>Технологический колледж 14 (Спасоналивковский 2-ой переулок), ближе к метро октябрьская</name>


     <wpt lat="55.730278" lon="37.621639">
     <name>Сквер аргентинской республики (ближе к метро октябрьская)</name>


     <wpt lat="55.730647" lon="37.622454">
     <name>Жилой дом Воровьёва возле метро октябрьская</name>


     <wpt lat="55.741906" lon="37.594612">
     <name>Усадьба Дениса Давыдова (Пречестенка)</name>



     <wpt lat="55.739225" lon="37.605583">
     <name>Памятная доска (Зачатьевский пер, дальний угол у 2 единорогов)</name>


     <wpt lat="55.738755" lon="37.591366">
     <name>особняк Дорожинской, посольство австралии (метро Парк Культуры: Кропоткинский переулок 13)</name>


     <wpt lat="55.744923" lon="37.601716">
     <name>Выход из метро Кропоткинская</name>

     <wpt lat="55.737487" lon="37.608949">
     <name>Музеон. Дед Мазай и зайцы</name>


     <wpt lat="55.734300" lon="37.614575">
     <name>Palm beach mural (Большая якиманка 33/13с3)</name>


     <wpt lat="55.743171" lon="37.613304">
     <name>Граффити облака (Болотная набережная 15с12 рядом с Петром 1)</name>


     <wpt lat="55.735553" lon="37.586255">
     <name>Бюст в музее Толстого</name>


     <wpt lat="55.743692" lon="37.596595">
     <name>Посольство герцогства Люксенбург (рядом с Кропоткинской, Пречистенка 14/1)me>


     <wpt lat="55.744067" lon="37.599921">
     <name>Пречистенка (рядом с памятником Энгельсу)</name>


     <wpt lat="55.747271" lon="37.591857">
     <name>Дом-музей Герцена (Сивцев вражек 27)</name>


     <wpt lat="55.730887" lon="37.607430">
     <name>Стена спорта (парк Горького, ближе к октябрьской)</name>


     <wpt lat="55.738571" lon="37.591518">
     <name>Особняк Дорожинской (посольство Австралии, Кропоткинский пер 13)</name>


     <wpt lat="55.739174" lon="37.591870">
     <name>Посольство республики Египет</name>


     <wpt lat="55.732110" lon="37.610533">
     <name>Представительство Марий Эл (между музеоном и октябрьской)</name>


     <wpt lat="55.743994" lon="37.584254">
     <name>Фонтан в Райффайзен банке (Смоленская-Сенная площадь, 28)</name>

     <wpt lat="55.738383" lon="37.599387">
     <name>Посольство Кот Д'Ивуар</name>

     <wpt lat="55.735893" lon="37.594932">
     <name>Горький М. (рядом с Здесь Был Ленин)</name>

     <wpt lat="55.739432" lon="37.598508">
     <name>Хаджа Насредин (Остоженка, рядом с умным котом и монастырём)</name>

     <wpt lat="55.739227" lon="37.601291">
     <name>Виктор Ефимович Попков (Молочный пер, рядом с умным котом)</name>

     <wpt lat="55.740949" lon="37.600417">
     <name>Галерея актуального искуства</name>

     <wpt lat="55.738764" lon="37.579581">
     <name>Суворов (за сквером Девичьего поля)</name>

     <wpt lat="55.739316" lon="37.581274">
     <name>Reebok classic (за сквером девичьего поля)</name>

     <wpt lat="55.740999" lon="37.581102">
     <name>Скрипач у фонтана (Неопалимовский пер)</name>

     <wpt lat="55.734728" lon="37.590697">
     <name>Бюст Евдокимова (за Безруковым)</name>

     <wpt lat="55.736736" lon="37.597767">
     <name>Церковь на Турчанинове переулке</name>

     <wpt lat="55.736743" lon="37.607972">
     <name>Музеон (покестоп в центре музеона)</name>

     <wpt lat="55.732468" lon="37.620398">
     <name>Герб (Узьекистан, возле Октябрьской)</name>

     <wpt lat="55.729146" lon="37.584439">
     <name>Табличка морякам (на пути к фрунзенской, комсомольский проспект 20)</name>

     <wpt lat="55.724451" lon="37.595880">
     <name>Мост молодоженов и Кубы в парке Горького</name>

     <wpt lat="55.741676" lon="37.598380">
     <name>Мультимедиа Арт Музей</name>

     <wpt lat="55.745278" lon="37.615326">
     <name>Route 66 граффити, болотная площадь</name>

     <wpt lat="55.739125" lon="37.598309">
     <name>Библиотека рядом с Магомаевым и Насредином (Коробейникоу пер)</name>

     <wpt lat="55.732665" lon="37.591580">
     <name>Улица Тимура Фрунзе (табличка)</name>

     <wpt lat="55.738891" lon="37.583757">
     <name>Василий Кандинский (рядом с табличкой Зубовской площади)</name>

     <wpt lat="55.741679" lon="37.604343">
     <name>Знатный герб (Обыденский переулок, 2) - рядом с Кропоткинской</name>

     <wpt lat="55.740784" lon="37.598030">
     <name>Unique building Остоженка 21</name>

     <wpt lat="55.741040" lon="37.597858">
     <name>Петров Василий Остоженка 18</name>

     <wpt lat="55.741404" lon="37.592448">
     <name>Доходный дом Исакова (рядом с памятником Сурикову и Мадам)</name>

     <wpt lat="55.742883" lon="37.591262">
     <name>Тут жил Варлам (Чистый переулок 8с1)</name>

     <wpt lat="55.726354" lon="37.604632">
     <name>Бакулев (Ленинский пр-т 8к2)</name>

     <wpt lat="55.734091" lon="37.605499">
     <name>Статуя Покой (Музеон, ближе к выходу)</name>

     <wpt lat="55.725715" lon="37.589273">
     <name>Вход на Андреевский мост со стороны фрунзенской набережной</name>

     <wpt lat="55.721691" lon="37.591150">
     <name>Вход в зелёный театр (парк Горького, за Андреевским мостом)</name>


     <wpt lat="55.719037" lon="37.590265">
     <name>Kremlin bird's house</name>

     <wpt lat="55.732826" lon="37.581194">
     <name>Клейн и Корсаков (2 гима за садом люди-деревья)</name>

     <wpt lat="55.731149" lon="37.609108">
     <name>Дом Скочинского возле октябрьской</name>

     <wpt lat="55.724472" lon="37.593278">
     <name>Табличка на Андреевском мосту</name>

     <wpt lat="55.725295" lon="37.594033">
     <name>южная Беседка Gazebo в парке Горького возле Голицынских прудов (на набережной)</name>

     <wpt lat="55.725678" lon="37.585115">
     <name>OrgMontazhProekt (ОргМонтажПроект - 1-ая фрунзенская 3Ас1)</name>

     <wpt lat="55.720391" lon="37.590925">
     <name>Мост для замков в нескучном саду</name>

     <wpt lat="55.740767" lon="37.595781">
     <name>КУЛЬТурный центр Эммануила Виторгана (Сеченовский пере 5)</name>

     <wpt lat="55.743065" lon="37.595618">
     <name>Вере Мухиной (Пречистенка)</name>

     <wpt lat="55.743581" lon="37.594801">
     <name>Девы с музыкальными инструментами (Пречистенкий перулок, за Пречистенкой)</name>

     <wpt lat="55.743903" lon="37.604658">
     <name>Храм ХС (на самом деле южная Преображенская церковь)</name>

     <wpt lat="55.743137" lon="37.606036">
     <name>Закладной камень (южнее храма ХС) </name>

     <wpt lat="55.745256" lon="37.607401">
     <name>Патриарх Гермоген (севернее храма ХС)</name>

     <wpt lat="55.746899" lon="37.605915">
     <name>Ночной дохор возле музея Пушкина</name>

     <wpt lat="55.748201" lon="37.609469">
     <name>Кутузов (Волхонка 5/6)</name>

     <wpt lat="55.750664" lon="37.608170">
     <name>Ивановский зал (Воздвиженка 3/5 - метро Боровицкая)</name>

     <wpt lat="55.752041" lon="37.609984">
     <name>Ленин у метро библиотека имени Ленина (мозайка)</name>

     <wpt lat="55.754876" lon="37.615745">
     <name>АС: Могила неизвестного солдата</name>

     <wpt lat="55.726386" lon="37.587517">
     <name>Ворота парка (метро фрунзенская, 1-ая фрунзенская улица) </name>

     <wpt lat="55.744341" lon="37.595713">
     <name>Дом деда мороза на староконюшенном</name>

     <wpt lat="55.743776" lon="37.587487">
     <name>Посольство Чили (полпути к смоленской)</name>

     <wpt lat="55.744508" lon="37.586971">
     <name>Усадьба Толстого-Грачева (за МИД)</name>

     <wpt lat="55.743065" lon="37.588175">
     <name>Serp i molot (Серп и молот рядом с МИД)</name>

     <wpt lat="55.741794" lon="37.589597">
     <name>Дом (архитектурный объект - Денежный пер, рядом с МИД), Конструктор Евгений Иванов</name>

     <wpt lat="55.742248" lon="37.587880">
     <name>Faces по пути к МИД</name>

     <wpt lat="55.721298" lon="37.602285">
     <name>Попков-Рочергов (мемориалная табличка за Ленинским у первоградки)</name>

     <wpt lat="55.728993" lon="37.568161">
     <name>Веранда сад-фонтан БЦ Луч (Большая Пироговская 27с7, между Фрунзенской и Спортивной)</name>

     <wpt lat="55.722048" lon="37.608875">
     <name>Паровозик в памперсах (ул Донская за Попковым-Рочерговым)</name>

     <wpt lat="55.724189" lon="37.608628">
     <name>Девушка (граффити на ул. Донская)</name>

     <wpt lat="55.718940" lon="37.588478">
     <name>Фазанятня в Нескучном Саду</name>

     <wpt lat="55.718324" lon="37.591466">
     <name>Ворота в парк (возле минералогического музея)</name>

     <wpt lat="55.726882" lon="37.617612">
     <name>ДКБ Морозова (северный вход возле м. Добрынинская)</name>

     <wpt lat="55.724129" lon="37.607392">
     <name>Мировой судья (очень мирный, Безымянный переулок, Донская улица)</name>

     <wpt lat="55.725987" lon="37.608185">
     <name>Младенец, вскормленный волчицей (возле Ленинского проспекта близко к м. Октябрьская)</name>

     <wpt lat="55.726968" lon="37.609204">
     <name>Bank of Russia (Банк России возле м. Октябрьская)</name>

     <wpt lat="55.718664" lon="37.592338">
     <name>Cat (Кошка возле минералогического музея)</name>

     <wpt lat="55.742828" lon="37.596712">
     <name>Музей Толстого (Пречистенка)</name>

     <wpt lat="55.743495" lon="37.580470">
     <name>Цапель (Ружейный переулок, 4)</name>

     <wpt lat="55.724736" lon="37.585790">
     <name>Экспострой (Фрунзенская набережная 30с57)</name>

     <wpt lat="55.736240" lon="37.610443">
     <name>Музеон. Портрет Куприянова</name>

     <wpt lat="55.743392" lon="37.597595">
     <name>Доска памяти боям 1917, усадьба Хрущевых-Селезнёвых</name>

     <wpt lat="55.736317" lon="37.608675">
     <name>Музеон: СССР Оплот мира</name>

     <wpt lat="55.827944" lon="37.557621">
     <name>ТСХА Мельничка</name>

     <wpt lat="55.761918" lon="37.619055">
     <name>Paul and Shark (Неглинная, Кузнецкий мост)</name>

     <wpt lat="55.746226" lon="37.604940">
     <name>Городская усадьба Голицыных (Кропоткинская)</name>

     <wpt lat="55.725142" lon="37.587409">
     <name>Молекула (1-ая Фрунзенская)</name>

     <wpt lat="55.727900" lon="37.582071">
     <name>Лекция на семерых (Фрунзенская)</name>

     <wpt lat="55.725199" lon="37.575884">
     <name>Табличка "Улица Ефремова" за Фрунзенской</name>

     <wpt lat="55.737765" lon="37.575484">
     <name>Забор посольства Кореи (за фонтаном у Льва Толстого)</name>

     <wpt lat="55.737418" lon="37.613919">
     <name>Президент отель на Ленинском рядом с м. Полянка</name>

     <wpt lat="55.720411" lon="37.589630">
     <name>Нескучный сад: Park Community Mural</name>

     <wpt lat="55.737578" lon="37.563934">
     <name>Дом с Бронзовыми Бюстами (Бережковская наб 12)</name>

     <wpt lat="55.739903" lon="37.623725">
     <name>Росатом Nuclear Energy State Corp</name>

     <wpt lat="55.748178" lon="37.591179">
     <name>Профессор Преображенский... Кривоарбатский переулок, 7</name>

     <wpt lat="55.742161" lon="37.584864">
     <name>Советский барельеф (Смоленский бульвар 22)</name>

     <wpt lat="55.742803" lon="37.589117">
     <name>Памятник Нансену (Большой Лёвшинский пер)</name>

     <wpt lat="55.738576" lon="37.612172">
     <name>Cat graffiti (сразу за Музеоном)</name>

     <wpt lat="55.742922" lon="37.609876">
     <name>Graffiti at Patriarshii most (Патриарший мост)</name>

     <wpt lat="55.744266" lon="37.612844">
     <name>Playground Loka01 (возле Болотной)</name>

     <wpt lat="55.743050" lon="37.621525">
     <name>Палаты в Кадашевской слободе</name>

     <wpt lat="55.742284" lon="37.620314">
     <name>Right Wing of Tretyakov Art Gallery</name>

     <wpt lat="55.738305" lon="37.625752">
     <name>Дом с длинной историей (Малая Ордынка)</name>

     <wpt lat="55.737158" lon="37.616925">
     <name>Гараж (Бродников пер 8)</name>

     <wpt lat="55.730540" lon="37.622563">
     <name>Жилой Дом Воробьёва (возле Добрынинской)</name>

     <wpt lat="55.726484" lon="37.610265">
     <name>Почта 119049 (Донская 5)</name>

     <wpt lat="55.750751" lon="37.618485">
     <name>Царь-колокол</name>

     <wpt lat="55.755353" lon="37.615638">
     <name>Орлы (Александровский Сад, север)</name>

     <wpt lat="55.715368" lon="37.585701">
     <name>Birds house (Нескучный сад рядом с ЧГК)</name>

     <wpt lat="55.724884" lon="37.576560">
     <name>Граффити Тюлени за фрунзенской</name>

     <wpt lat="55.735560" lon="37.609306">
     <name>Горький А.М. (Музеон возле Держинского)</name>

     <wpt lat="55.753202" lon="37.613207">
     <name>Ваза на манежной площади</name>

     <wpt lat="55.725747" lon="37.596377">
     <name>Наутилус в парке Горького возле пруда</name>

     -->

    <wpt lat="55.733467" lon="37.587750">
        <name>Anything</name>
        <time>2014-09-24T14:00:00Z</time>
    </wpt>
    
</gpx>

